[{"zipcode": 75015, "address": "344Vrue Vaugirard", "prix_salle": "-", "geoloc": [48.839512, 2.303007], "name": "Coffee Chope", "prix_terasse": "-", "date": "2014-02-01", "prix_comptoir": 1, "geometry": {"type": "Point", "coordinates": [2.303007, 48.839512]}, "recordid": "3c276428d45ad68ccdf6875e4ddcfe95d0c0d4cf", "city": "Paris", "country": "France"},
{"zipcode": 75010, "address": "5, rue d'Alsace", "prix_salle": "-", "geoloc": [48.876737, 2.357601], "name": "Ext\u00e9rieur Quai", "prix_terasse": "-", "date": "2014-02-01", "prix_comptoir": 1, "geometry": {"type": "Point", "coordinates": [2.357601, 48.876737]}, "recordid": "97ad81cd1127a8566085ad796eeb44a06bec7514", "city": "Paris", "country": "France"},
{"zipcode": 75004, "address": "6 Bd henri IV", "prix_salle": "-", "geoloc": [48.850852, 2.362029], "name": "Le Sully", "prix_terasse": "-", "date": "2014-02-01", "prix_comptoir": 1, "geometry": {"type": "Point", "coordinates": [2.362029, 48.850852]}, "recordid": "aa4294c1b8d660a23db0dc81321e509bae1dae68", "city": "Paris", "country": "France"},
{"zipcode": 75018, "address": "53 rue du ruisseau", "prix_salle": "-", "geoloc": [48.893517, 2.340271], "name": "O q de poule", "prix_terasse": "1", "date": "2013-08-22", "prix_comptoir": 1, "geometry": {"type": "Point", "coordinates": [2.340271, 48.893517]}, "recordid": "a81362dbed35247555fb105bd83ff2906904a66e", "city": "Paris", "country": "France"},
{"zipcode": 75002, "address": "1 Passage du Grand Cerf", "prix_salle": "-", "geoloc": [48.864655, 2.350089], "name": "Le Pas Sage", "prix_terasse": "-", "date": "2013-08-22", "prix_comptoir": 1, "geometry": {"type": "Point", "coordinates": [2.350089, 48.864655]}, "recordid": "7ced86acbd5ccfba229bcc07d70d0d117aee16a5", "city": "Paris", "country": "France"},
{"zipcode": 75018, "address": "112 Rue Championnet", "prix_salle": "-", "geoloc": [48.895825, 2.339712], "name": "La Renaissance", "prix_terasse": "-", "date": "2013-08-22", "prix_comptoir": 1, "geometry": {"type": "Point", "coordinates": [2.339712, 48.895825]}, "recordid": "5582c8572bd7637bf305b74c1c0bdb74a8e4247f", "city": "Paris", "country": "France"},
{"zipcode": 75011, "address": "Rue de la Fontaine au Roi", "prix_salle": "-", "geoloc": [48.868581, 2.373015], "name": "La Caravane", "prix_terasse": "-", "date": "2012-05-11", "prix_comptoir": 0, "geometry": {"type": "Point", "coordinates": [2.373015, 48.868581]}, "recordid": "50bb0fa06e562a242f115ddbdae2ed9c7df93d57", "city": "Paris", "country": "France"},
{"zipcode": 75009, "address": "51 Rue Victoire", "prix_salle": "1", "geoloc": [48.875155, 2.335536], "name": "Le chantereine", "prix_terasse": "-", "date": "2012-10-22", "prix_comptoir": 1, "geometry": {"type": "Point", "coordinates": [2.335536, 48.875155]}, "recordid": "eb8a62feeedaf7ed8b8c912305270ee857068689", "city": "Paris", "country": "France"},
{"zipcode": 75018, "address": "11 rue Feutrier", "prix_salle": "1", "geoloc": [48.886536, 2.346525], "name": "Le M\u00fcller", "prix_terasse": "-", "date": "2012-10-22", "prix_comptoir": 1, "geometry": {"type": "Point", "coordinates": [2.346525, 48.886536]}, "recordid": "62c552f167f671f88569c1f2d6a44098fb514c51", "city": "Paris", "country": "France"},
{"zipcode": 75015, "address": "21 rue Copreaux", "prix_salle": "1", "geoloc": [48.841494, 2.307117], "name": "Le drapeau de la fidelit\u00e9", "prix_terasse": "-", "date": "2012-10-22", "prix_comptoir": 1, "geometry": {"type": "Point", "coordinates": [2.307117, 48.841494]}, "recordid": "5120ea0b9d7387766072b90655166486928e25c8", "city": "Paris", "country": "France"},
{"zipcode": 75015, "address": "125 rue Blomet", "prix_salle": "1", "geoloc": [48.839743, 2.296898], "name": "Le caf\u00e9 des amis", "prix_terasse": "-", "date": "2012-10-22", "prix_comptoir": 1, "geometry": {"type": "Point", "coordinates": [2.296898, 48.839743]}, "recordid": "865f62415adc5c34e3ca38a1748b7a324dfba209", "city": "Paris", "country": "France"},
{"zipcode": 75004, "address": "10 rue Saint Martin", "prix_salle": "-", "geoloc": [48.857728, 2.349641], "name": "Le Caf\u00e9 Livres", "prix_terasse": "-", "date": "2012-10-09", "prix_comptoir": 1, "geometry": {"type": "Point", "coordinates": [2.349641, 48.857728]}, "recordid": "7ef54a78802d49cafd2701458df2b0d0530d123b", "city": "Paris", "country": "France"},
{"zipcode": 75007, "address": "46 avenue Bosquet", "prix_salle": "-", "geoloc": [48.856003, 2.30457], "name": "Le Bosquet", "prix_terasse": "-", "date": "2012-10-09", "prix_comptoir": 1, "geometry": {"type": "Point", "coordinates": [2.30457, 48.856003]}, "recordid": "d701a759e08a71f4bbb01f29473274b0152135d0", "city": "Paris", "country": "France"},
{"zipcode": 75018, "address": "12 rue Armand Carrel", "prix_salle": "-", "geoloc": [48.889426, 2.332954], "name": "Le Chaumontois", "prix_terasse": "-", "date": "2012-03-07", "prix_comptoir": 1, "geometry": {"type": "Point", "coordinates": [2.332954, 48.889426]}, "recordid": "e12ff00a644c91ad910ddc63a770c190be93a393", "city": "Paris", "country": "France"},
{"zipcode": 75013, "address": "34 avenue Pierre Mend\u00e8s-France", "prix_salle": "-", "geoloc": [48.838521, 2.370478], "name": "Le Kleemend's", "prix_terasse": "-", "date": "2012-03-07", "prix_comptoir": 1, "geometry": {"type": "Point", "coordinates": [2.370478, 48.838521]}, "recordid": "0f6cd1ee7751b00c9574efcfdcf66fa0e857d251", "city": "Paris", "country": "France"},
{"zipcode": 75012, "address": "202 rue du faubourg st antoine", "prix_salle": "-", "geoloc": [48.849861, 2.385342], "name": "Caf\u00e9 Pierre", "prix_terasse": "-", "date": "2012-03-07", "prix_comptoir": 1, "geometry": {"type": "Point", "coordinates": [2.385342, 48.849861]}, "recordid": "f9de9d0fb5e92f047a6f1986a31f9dd4d38bcb36", "city": "Paris", "country": "France"},
{"zipcode": 75008, "address": "61 rue de Ponthieu", "prix_salle": "-", "geoloc": [48.872202, 2.304624], "name": "Les Arcades", "prix_terasse": "-", "date": "2012-03-07", "prix_comptoir": 1, "geometry": {"type": "Point", "coordinates": [2.304624, 48.872202]}, "recordid": "67eaf58afc856077c0680601e453e75c0922c9c0", "city": "Paris", "country": "France"},
{"zipcode": 75007, "address": "31 rue Saint-Dominique", "prix_salle": "-", "geoloc": [48.859031, 2.320315], "name": "Le Square", "prix_terasse": "-", "date": "2012-03-07", "prix_comptoir": 1, "geometry": {"type": "Point", "coordinates": [2.320315, 48.859031]}, "recordid": "678558317bc9ad46652e5b1643e70c2142a76e7e", "city": "Paris", "country": "France"},
{"zipcode": 75012, "address": "75, avenue Ledru-Rollin", "prix_salle": "-", "geoloc": [48.850092, 2.37463], "name": "Assaporare Dix sur Dix", "prix_terasse": "-", "date": "2012-06-27", "prix_comptoir": 1, "geometry": {"type": "Point", "coordinates": [2.37463, 48.850092]}, "recordid": "667474321887d08a3cc636adf043ad354b65fa61", "city": "Paris", "country": "France"},
{"zipcode": 75002, "address": "129 boulevard sebastopol", "prix_salle": "-", "geoloc": [48.86805, 2.353313], "name": "Au cerceau d'or", "prix_terasse": "-", "date": "2012-06-27", "prix_comptoir": 1, "geometry": {"type": "Point", "coordinates": [2.353313, 48.86805]}, "recordid": "c9ef52ba2fabe0286700329f18bbbbea9a10b474", "city": "Paris", "country": "France"},
{"zipcode": 75012, "address": "21 ter boulevard Diderot", "prix_salle": "-", "geoloc": [48.845927, 2.373051], "name": "Aux cadrans", "prix_terasse": "-", "date": "2012-06-27", "prix_comptoir": 1, "geometry": {"type": "Point", "coordinates": [2.373051, 48.845927]}, "recordid": "ed5f98686856bf4ddd2b381b43ad229246741a90", "city": "Paris", "country": "France"},
{"zipcode": 75016, "address": "17 rue Jean de la Fontaine", "prix_salle": "-", "geoloc": [48.851662, 2.273883], "name": "Caf\u00e9 antoine", "prix_terasse": "-", "date": "2012-06-27", "prix_comptoir": 1, "geometry": {"type": "Point", "coordinates": [2.273883, 48.851662]}, "recordid": "ab6d1e054e2e6ae7d6150013173f55e83c05ca23", "city": "Paris", "country": "France"},
{"zipcode": 75008, "address": "rue de Lisbonne", "prix_salle": "-", "geoloc": [48.877642, 2.312823], "name": "Caf\u00e9 de la Mairie (du VIII)", "prix_terasse": "-", "date": "2012-06-27", "prix_comptoir": 1, "geometry": {"type": "Point", "coordinates": [2.312823, 48.877642]}, "recordid": "7de8a79b026ac63f453556612505b5bcd9229036", "city": "Paris", "country": "France"},
{"zipcode": 75005, "address": "5 rue Claude Bernard", "prix_salle": "-", "geoloc": [48.838633, 2.349916], "name": "Caf\u00e9 Lea", "prix_terasse": "-", "date": "2012-06-27", "prix_comptoir": 1, "geometry": {"type": "Point", "coordinates": [2.349916, 48.838633]}, "recordid": "fecd8900cf83027f74ceced9fc4ad80ac73b63a7", "city": "Paris", "country": "France"},
{"zipcode": 75005, "address": "11 boulevard Saint-Germain", "prix_salle": "-", "geoloc": [48.849293, 2.354486], "name": "Cardinal Saint-Germain", "prix_terasse": "-", "date": "2012-06-27", "prix_comptoir": 1, "geometry": {"type": "Point", "coordinates": [2.354486, 48.849293]}, "recordid": "e4a078c30c98082896787f4e4b41a07554392529", "city": "Paris", "country": "France"},
{"zipcode": 75002, "address": "52 rue Notre-Dame des Victoires", "prix_salle": "-", "geoloc": [48.869771, 2.342501], "name": "D\u00e9d\u00e9 la frite", "prix_terasse": "-", "date": "2012-06-27", "prix_comptoir": 1, "geometry": {"type": "Point", "coordinates": [2.342501, 48.869771]}, "recordid": "ccb2ba2f98043e8eefd5fda829dee1ea7f1d2c7a", "city": "Paris", "country": "France"},
{"zipcode": 75015, "address": "36 rue du hameau", "prix_salle": "-", "geoloc": [48.834051, 2.287345], "name": "La Bauloise", "prix_terasse": "-", "date": "2012-06-27", "prix_comptoir": 1, "geometry": {"type": "Point", "coordinates": [2.287345, 48.834051]}, "recordid": "c9fe10abd15ede7ccaeb55c309898d30d7b19d0e", "city": "Paris", "country": "France"},
{"zipcode": 75019, "address": "71 quai de Seine", "prix_salle": "-", "geoloc": [48.888165, 2.377387], "name": "Le Bellerive", "prix_terasse": "-", "date": "2012-06-27", "prix_comptoir": 1, "geometry": {"type": "Point", "coordinates": [2.377387, 48.888165]}, "recordid": "4e0b5c2d33d7c25fc54c51171f3d37e509959fc0", "city": "Paris", "country": "France"},
{"zipcode": 75001, "address": "42 rue coquill\u00e8re", "prix_salle": "-", "geoloc": [48.864543, 2.340997], "name": "Le bistrot de Ma\u00eblle et Augustin", "prix_terasse": "-", "date": "2012-06-27", "prix_comptoir": 1, "geometry": {"type": "Point", "coordinates": [2.340997, 48.864543]}, "recordid": "52acab12469af291984e9a70962e08c72b058e10", "city": "Paris", "country": "France"},
{"zipcode": 75009, "address": "14 rue Rougemont", "prix_salle": "-", "geoloc": [48.872103, 2.346161], "name": "Le Dellac", "prix_terasse": "-", "date": "2012-06-27", "prix_comptoir": 1, "geometry": {"type": "Point", "coordinates": [2.346161, 48.872103]}, "recordid": "4d1d627ecea2ffa279bb862f8ba495d95ca75350", "city": "Paris", "country": "France"},
{"zipcode": 75004, "address": "1 rue Pecquay", "prix_salle": "-", "geoloc": [48.859645, 2.355598], "name": "Le Felteu", "prix_terasse": "-", "date": "2012-06-27", "prix_comptoir": 1, "geometry": {"type": "Point", "coordinates": [2.355598, 48.859645]}, "recordid": "2c1fa55460af282266d86fd003af4f929fdf4e7d", "city": "Paris", "country": "France"},
{"zipcode": 75001, "address": "2 bis quai de la m\u00e9gisserie", "prix_salle": "-", "geoloc": [48.85763, 2.346101], "name": "Le Reynou", "prix_terasse": "-", "date": "2012-06-27", "prix_comptoir": 1, "geometry": {"type": "Point", "coordinates": [2.346101, 48.85763]}, "recordid": "d4ddd30ab3e721a317fc7ea89d5b9001255ce9f4", "city": "Paris", "country": "France"},
{"zipcode": 75018, "address": "23 rue des abbesses", "prix_salle": "-", "geoloc": [48.884646, 2.337734], "name": "Le Saint Jean", "prix_terasse": "-", "date": "2012-06-27", "prix_comptoir": 1, "geometry": {"type": "Point", "coordinates": [2.337734, 48.884646]}, "recordid": "51b47cf167b7f32eeebb108330956694d75d4268", "city": "Paris", "country": "France"},
{"zipcode": 75015, "address": "65 boulevard Pasteur", "prix_salle": "-", "geoloc": [48.841007, 2.31466], "name": "les montparnos", "prix_terasse": "-", "date": "2012-06-27", "prix_comptoir": 1, "geometry": {"type": "Point", "coordinates": [2.31466, 48.841007]}, "recordid": "2aaca891ffd0694c657a43889516ab72afdfba07", "city": "Paris", "country": "France"},
{"zipcode": 75006, "address": "16 rue DE MEZIERES", "prix_salle": "-", "geoloc": [48.850323, 2.33039], "name": "L'antre d'eux", "prix_terasse": "-", "date": "2014-02-01", "prix_comptoir": 1, "geometry": {"type": "Point", "coordinates": [2.33039, 48.850323]}, "recordid": "4ff4337934c66f61e00d1d9551f7cdddba03e544", "city": "Paris", "country": "France"},
{"zipcode": 75002, "address": "58 rue de Montorgueil", "prix_salle": "-", "geoloc": [48.864957, 2.346938], "name": "Drole d'endroit pour une rencontre", "prix_terasse": "-", "date": "2014-02-01", "prix_comptoir": 1, "geometry": {"type": "Point", "coordinates": [2.346938, 48.864957]}, "recordid": "3451657f880abe75d0c7e386fc698405556c53e8", "city": "Paris", "country": "France"},
{"zipcode": 75018, "address": "104 rue caulaincourt", "prix_salle": "-", "geoloc": [48.889565, 2.339735], "name": "Le pari's caf\u00e9", "prix_terasse": "-", "date": "2014-02-01", "prix_comptoir": 1, "geometry": {"type": "Point", "coordinates": [2.339735, 48.889565]}, "recordid": "e8c34a537b673fcb26c76e02deca4f5a728929dc", "city": "Paris", "country": "France"},
{"zipcode": 75011, "address": "60 rue saint-sabin", "prix_salle": "-", "geoloc": [48.859115, 2.368871], "name": "Le Poulailler", "prix_terasse": "-", "date": "2014-02-01", "prix_comptoir": 1, "geometry": {"type": "Point", "coordinates": [2.368871, 48.859115]}, "recordid": "325ea74ba83f716dde87c08cffd36f7df7722a49", "city": "Paris", "country": "France"},
{"zipcode": 75012, "address": "33 Cour Saint Emilion", "prix_salle": "-", "geoloc": [48.833595, 2.38604], "name": "Chai 33", "prix_terasse": "-", "date": "2014-02-01", "prix_comptoir": 1, "geometry": {"type": "Point", "coordinates": [2.38604, 48.833595]}, "recordid": "528de8d5d8780bee83145637e315483d48f5ae3c", "city": "Paris", "country": "France"},
{"zipcode": 75011, "address": "99 rue Jean-Pierre Timbaud", "prix_salle": "-", "geoloc": [48.868741, 2.379969], "name": "L'Assassin", "prix_terasse": "-", "date": "2014-02-01", "prix_comptoir": 1, "geometry": {"type": "Point", "coordinates": [2.379969, 48.868741]}, "recordid": "fac0483890ff8bdaeb3feddbdb032c5112f24678", "city": "Paris", "country": "France"},
{"zipcode": 75020, "address": "1 rue d'Avron", "prix_salle": "-", "geoloc": [48.851463, 2.398691], "name": "l'Usine", "prix_terasse": "-", "date": "2014-02-01", "prix_comptoir": 1, "geometry": {"type": "Point", "coordinates": [2.398691, 48.851463]}, "recordid": "fee1e3eb103bbc98e19e45d34365da0f27166541", "city": "Paris", "country": "France"},
{"zipcode": 75018, "address": "52 rue Liebniz", "prix_salle": "-", "geoloc": [48.896305, 2.332898], "name": "La Bricole", "prix_terasse": "-", "date": "2014-02-01", "prix_comptoir": 1, "geometry": {"type": "Point", "coordinates": [2.332898, 48.896305]}, "recordid": "4744e866c244c59eec43b3fe159542d2ef433065", "city": "Paris", "country": "France"},
{"zipcode": 75005, "address": "place maubert", "prix_salle": "-", "geoloc": [48.850311, 2.34885], "name": "le ronsard", "prix_terasse": "-", "date": "2014-02-01", "prix_comptoir": 1, "geometry": {"type": "Point", "coordinates": [2.34885, 48.850311]}, "recordid": "49a390322b45246bc2c1e50fcd46815ad271bca0", "city": "Paris", "country": "France"},
{"zipcode": 75003, "address": "82 rue des archives", "prix_salle": "-", "geoloc": [48.863038, 2.3604], "name": "Face Bar", "prix_terasse": "-", "date": "2014-02-01", "prix_comptoir": 1, "geometry": {"type": "Point", "coordinates": [2.3604, 48.863038]}, "recordid": "d96e16ebf2460bb2f6c34198918a071233725cbc", "city": "Paris", "country": "France"},
{"zipcode": 75010, "address": "49 rue bichat", "prix_salle": "-", "geoloc": [48.872746, 2.366392], "name": "American Kitchen", "prix_terasse": "-", "date": "2013-08-22", "prix_comptoir": 1, "geometry": {"type": "Point", "coordinates": [2.366392, 48.872746]}, "recordid": "6b9395475cbbbbbacbaaeb070f71d31c2d183dc4", "city": "Paris", "country": "France"},
{"zipcode": 75010, "address": "55 bis quai de valmy", "prix_salle": "-", "geoloc": [48.870598, 2.365413], "name": "La Marine", "prix_terasse": "-", "date": "2013-08-22", "prix_comptoir": 1, "geometry": {"type": "Point", "coordinates": [2.365413, 48.870598]}, "recordid": "d4d2f92d27f38de59e57744f434781e61283551c", "city": "Paris", "country": "France"},
{"zipcode": 75017, "address": "21 avenue Brochant", "prix_salle": "-", "geoloc": [48.889101, 2.318001], "name": "Le Bloc", "prix_terasse": "-", "date": "2013-08-22", "prix_comptoir": 1, "geometry": {"type": "Point", "coordinates": [2.318001, 48.889101]}, "recordid": "e425882ee969d1e8bffe7234336ae40da88c8439", "city": "Paris", "country": "France"},
{"zipcode": 75020, "address": "229 avenue Gambetta", "prix_salle": "-", "geoloc": [48.874697, 2.405421], "name": "La Recoleta au Manoir", "prix_terasse": "-", "date": "2013-08-22", "prix_comptoir": 1, "geometry": {"type": "Point", "coordinates": [2.405421, 48.874697]}, "recordid": "02de82cffb2918beafb740f4e924029d470b07a1", "city": "Paris", "country": "France"},
{"zipcode": 75015, "address": "80 Rue Saint-Charles", "prix_salle": "-", "geoloc": [48.847344, 2.286078], "name": "Le Pareloup", "prix_terasse": "-", "date": "2013-08-22", "prix_comptoir": 0, "geometry": {"type": "Point", "coordinates": [2.286078, 48.847344]}, "recordid": "0227ca95f76bb6097ae0a0e6f455af2624d49ae3", "city": "Paris", "country": "France"},
{"zipcode": 75014, "address": "3 rue de la Gait\u00e9", "prix_salle": "-", "geoloc": [48.840771, 2.324589], "name": "La Brasserie Gait\u00e9", "prix_terasse": "1", "date": "2013-08-22", "prix_comptoir": null, "geometry": {"type": "Point", "coordinates": [2.324589, 48.840771]}, "recordid": "e7c4cba08749c892a73db2715d06623d9e0c2f67", "city": "Paris", "country": "France"},
{"zipcode": 75009, "address": "46 rue Victoire", "prix_salle": "-", "geoloc": [48.875232, 2.336036], "name": "Caf\u00e9 Zen", "prix_terasse": "-", "date": "2012-05-11", "prix_comptoir": 1, "geometry": {"type": "Point", "coordinates": [2.336036, 48.875232]}, "recordid": "5e9a6172f8b64cd098a5f2cf9b1d42567fe0a894", "city": "Paris", "country": "France"},
{"zipcode": 75008, "address": "27 rue de Penthi\u00e8vre", "prix_salle": "1", "geoloc": [48.872677, 2.315276], "name": "O'Breizh", "prix_terasse": "-", "date": "2012-10-22", "prix_comptoir": 1, "geometry": {"type": "Point", "coordinates": [2.315276, 48.872677]}, "recordid": "ead3108add27ef41bb92517aca834f7d7f632816", "city": "Paris", "country": "France"},
{"zipcode": 75002, "address": "23 rue saint augustin", "prix_salle": "1", "geoloc": [48.868838, 2.33605], "name": "Le Petit Choiseul", "prix_terasse": "-", "date": "2012-10-22", "prix_comptoir": 1, "geometry": {"type": "Point", "coordinates": [2.33605, 48.868838]}, "recordid": "de601277ca00567b62fa4f5277e4a17679faa753", "city": "Paris", "country": "France"},
{"zipcode": 75005, "address": "7 rue Ep\u00e9e de Bois", "prix_salle": "1", "geoloc": [48.841526, 2.351012], "name": "Invitez vous chez nous", "prix_terasse": "-", "date": "2012-10-22", "prix_comptoir": 1, "geometry": {"type": "Point", "coordinates": [2.351012, 48.841526]}, "recordid": "1d2373bdec8a07306298e3ee54894ac295ee1d55", "city": "Paris", "country": "France"},
{"zipcode": 75002, "address": "142 Rue Saint-Denis 75002 Paris", "prix_salle": "1", "geoloc": [48.86525, 2.350507], "name": "La Cordonnerie", "prix_terasse": "-", "date": "2012-10-22", "prix_comptoir": 1, "geometry": {"type": "Point", "coordinates": [2.350507, 48.86525]}, "recordid": "5c9bf60617a99ad75445b454f98e75e1a104021d", "city": "Paris", "country": "France"},
{"zipcode": 75018, "address": "3, rue Baudelique", "prix_salle": "1", "geoloc": [48.892244, 2.346973], "name": "Le Supercoin", "prix_terasse": "-", "date": "2012-10-22", "prix_comptoir": 1, "geometry": {"type": "Point", "coordinates": [2.346973, 48.892244]}, "recordid": "68a4ee10f1fc4d2a659501e811d148420fa80e95", "city": "Paris", "country": "France"},
{"zipcode": 75018, "address": "86 bis rue Riquet", "prix_salle": "1", "geoloc": [48.890043, 2.362241], "name": "Populettes", "prix_terasse": "-", "date": "2012-10-22", "prix_comptoir": 1, "geometry": {"type": "Point", "coordinates": [2.362241, 48.890043]}, "recordid": "8cc55d58d72621a7e91cf6b456731d2cb2863afc", "city": "Paris", "country": "France"},
{"zipcode": 75018, "address": "49 rue des Cloys", "prix_salle": "1", "geoloc": [48.893017, 2.337776], "name": "Au bon coin", "prix_terasse": "1", "date": "2012-10-18", "prix_comptoir": 1, "geometry": {"type": "Point", "coordinates": [2.337776, 48.893017]}, "recordid": "0408f272c08c52e3cae035ffdeb8928698787ea9", "city": "Paris", "country": "France"},
{"zipcode": 75013, "address": "69 rue Broca", "prix_salle": "1", "geoloc": [48.836919, 2.347003], "name": "Le Couvent", "prix_terasse": "-", "date": "2012-10-18", "prix_comptoir": 1, "geometry": {"type": "Point", "coordinates": [2.347003, 48.836919]}, "recordid": "729b2f228d3fd2db6f78bb624d451f59555e4a04", "city": "Paris", "country": "France"},
{"zipcode": 75005, "address": "111 rue mouffetard", "prix_salle": "1", "geoloc": [48.840624, 2.349766], "name": "La Br\u00fblerie des Ternes", "prix_terasse": "-", "date": "2012-10-18", "prix_comptoir": 1, "geometry": {"type": "Point", "coordinates": [2.349766, 48.840624]}, "recordid": "233dd2a17620cd5eae70fef11cc627748e3313d5", "city": "Paris", "country": "France"},
{"zipcode": 75014, "address": "59 Boulevard Saint-Jacques", "prix_salle": "-", "geoloc": [48.832825, 2.336116], "name": "L'\u00c9cir", "prix_terasse": "-", "date": "2012-10-09", "prix_comptoir": 1, "geometry": {"type": "Point", "coordinates": [2.336116, 48.832825]}, "recordid": "4a44324a5a806801fd3e05af89cad7c0f1e69d1e", "city": "Paris", "country": "France"},
{"zipcode": 75012, "address": "126, rue du Faubourg Saint Antoine", "prix_salle": "-", "geoloc": [48.850696, 2.378417], "name": "Le Chat bossu", "prix_terasse": "-", "date": "2012-10-09", "prix_comptoir": 1, "geometry": {"type": "Point", "coordinates": [2.378417, 48.850696]}, "recordid": "d1d02463f7c90d38cccffd898e15f51e65910baf", "city": "Paris", "country": "France"},
{"zipcode": 75014, "address": "58 boulvevard Saint Jacques", "prix_salle": "-", "geoloc": [48.834157, 2.33381], "name": "Denfert caf\u00e9", "prix_terasse": "-", "date": "2012-10-09", "prix_comptoir": 1, "geometry": {"type": "Point", "coordinates": [2.33381, 48.834157]}, "recordid": "f78f406e5ccb95cb902ce618ed54eba1d4776a3c", "city": "Paris", "country": "France"},
{"zipcode": 75002, "address": "95 rue Montmartre", "prix_salle": "-", "geoloc": [48.867948, 2.343582], "name": "Le Caf\u00e9 frapp\u00e9", "prix_terasse": "-", "date": "2012-10-09", "prix_comptoir": 1, "geometry": {"type": "Point", "coordinates": [2.343582, 48.867948]}, "recordid": "4dd2a924a7b2c5f061cecaba2f272548a8c83c6c", "city": "Paris", "country": "France"},
{"zipcode": 75003, "address": "78 rue vieille du temple", "prix_salle": "-", "geoloc": [48.859772, 2.360558], "name": "La Perle", "prix_terasse": "-", "date": "2012-10-09", "prix_comptoir": 1, "geometry": {"type": "Point", "coordinates": [2.360558, 48.859772]}, "recordid": "476c54e643613ec36a9b1c533f32122fd873f3c3", "city": "Paris", "country": "France"},
{"zipcode": 75005, "address": "1 rue Thouin", "prix_salle": "-", "geoloc": [48.845047, 2.349583], "name": "Le Descartes", "prix_terasse": "-", "date": "2012-10-09", "prix_comptoir": 1, "geometry": {"type": "Point", "coordinates": [2.349583, 48.845047]}, "recordid": "e9cb0b0d6b6b512e9ecab889267ba342a4f0ea93", "city": "Paris", "country": "France"},
{"zipcode": 75014, "address": "55 rue de la tombe Issoire", "prix_salle": "-", "geoloc": [48.830151, 2.334213], "name": "Le petit club", "prix_terasse": "-", "date": "2012-03-07", "prix_comptoir": 1, "geometry": {"type": "Point", "coordinates": [2.334213, 48.830151]}, "recordid": "c6ca1166fa7fd7050f5d1c626a1e17050116c91e", "city": "Paris", "country": "France"},
{"zipcode": 75011, "address": "90 avenue Parmentier", "prix_salle": "-", "geoloc": [48.865707, 2.374382], "name": "Le Plein soleil", "prix_terasse": "-", "date": "2012-03-07", "prix_comptoir": 1, "geometry": {"type": "Point", "coordinates": [2.374382, 48.865707]}, "recordid": "95cf5fb735bd19826db70a3af4fe72fce647d4e5", "city": "Paris", "country": "France"},
{"zipcode": 75008, "address": "146, boulevard Haussmann", "prix_salle": "-", "geoloc": [48.875322, 2.312329], "name": "Le Relais Haussmann", "prix_terasse": "-", "date": "2012-03-07", "prix_comptoir": 1, "geometry": {"type": "Point", "coordinates": [2.312329, 48.875322]}, "recordid": "6c5f68f47c916638342b77bd5edfc30bd7051303", "city": "Paris", "country": "France"},
{"zipcode": 75007, "address": "88 rue Saint-Dominique", "prix_salle": "-", "geoloc": [48.859559, 2.30643], "name": "Le Malar", "prix_terasse": "-", "date": "2012-03-07", "prix_comptoir": 1, "geometry": {"type": "Point", "coordinates": [2.30643, 48.859559]}, "recordid": "c633cb01686aa5f3171bf59976dc9b7f23cbca54", "city": "Paris", "country": "France"},
{"zipcode": 75020, "address": "47 rue Belgrand", "prix_salle": "-", "geoloc": [48.864628, 2.408038], "name": "Au panini de la place", "prix_terasse": "-", "date": "2012-03-07", "prix_comptoir": 1, "geometry": {"type": "Point", "coordinates": [2.408038, 48.864628]}, "recordid": "66dedd35fcbbbb24f328882d49098de7aa5f26ba", "city": "Paris", "country": "France"},
{"zipcode": 75017, "address": "182 rue de Courcelles", "prix_salle": "-", "geoloc": [48.88435, 2.297978], "name": "Le Village", "prix_terasse": "-", "date": "2012-03-07", "prix_comptoir": 1, "geometry": {"type": "Point", "coordinates": [2.297978, 48.88435]}, "recordid": "1e07eaf8a93875906d0b18eb6a897c651943589a", "city": "Paris", "country": "France"},
{"zipcode": 75011, "address": "41 rue de Charonne", "prix_salle": "-", "geoloc": [48.853381, 2.376706], "name": "Pause Caf\u00e9", "prix_terasse": "-", "date": "2012-03-07", "prix_comptoir": 1, "geometry": {"type": "Point", "coordinates": [2.376706, 48.853381]}, "recordid": "60d98c3236a70824df50e9aca83e7d7f13a310c5", "city": "Paris", "country": "France"},
{"zipcode": 75011, "address": "14 rue Jean Mac\u00e9", "prix_salle": "-", "geoloc": [48.853253, 2.383415], "name": "Le Pure caf\u00e9", "prix_terasse": "-", "date": "2012-03-07", "prix_comptoir": 1, "geometry": {"type": "Point", "coordinates": [2.383415, 48.853253]}, "recordid": "66707fb2e707d2145fc2eb078a1b980a45921616", "city": "Paris", "country": "France"},
{"zipcode": 75011, "address": "307 fg saint Antoine", "prix_salle": "-", "geoloc": [48.848873, 2.392859], "name": "Extra old caf\u00e9", "prix_terasse": "-", "date": "2012-03-07", "prix_comptoir": 1, "geometry": {"type": "Point", "coordinates": [2.392859, 48.848873]}, "recordid": "039ec7dcb219cfc434547b06938ba497afeb83b4", "city": "Paris", "country": "France"},
{"zipcode": 75010, "address": "44 rue Vinaigriers", "prix_salle": "-", "geoloc": [48.873227, 2.360787], "name": "Chez Fafa", "prix_terasse": "-", "date": "2012-03-07", "prix_comptoir": 1, "geometry": {"type": "Point", "coordinates": [2.360787, 48.873227]}, "recordid": "1572d199f186bf86d7753fe71ac23477a7a8bd2c", "city": "Paris", "country": "France"},
{"zipcode": 75011, "address": "3 rue Faidherbe", "prix_salle": "-", "geoloc": [48.850836, 2.384069], "name": "En attendant l'or", "prix_terasse": "-", "date": "2012-06-27", "prix_comptoir": 1, "geometry": {"type": "Point", "coordinates": [2.384069, 48.850836]}, "recordid": "de5789bb4a4ffbd244cded8dc555639dbe7d2279", "city": "Paris", "country": "France"},
{"zipcode": 75002, "address": "30 rue des Petits-Champs", "prix_salle": "-", "geoloc": [48.866993, 2.336006], "name": "Br\u00fblerie San Jos\u00e9", "prix_terasse": "-", "date": "2012-06-27", "prix_comptoir": 1, "geometry": {"type": "Point", "coordinates": [2.336006, 48.866993]}, "recordid": "b736e5fa17396ee56a642212ccd0ab29c7f2bef1", "city": "Paris", "country": "France"},
{"zipcode": 75001, "address": "2 place Martin Nadaud", "prix_salle": "-", "geoloc": [48.856434, 2.342683], "name": "Caf\u00e9 Martin", "prix_terasse": "-", "date": "2012-06-27", "prix_comptoir": 1, "geometry": {"type": "Point", "coordinates": [2.342683, 48.856434]}, "recordid": "25fbf857029c54d57909c158e3039349b77344ed", "city": "Paris", "country": "France"},
{"zipcode": 75001, "address": "14 rue Turbigo, Paris", "prix_salle": "-", "geoloc": [48.863675, 2.348701], "name": "Etienne", "prix_terasse": "-", "date": "2012-06-27", "prix_comptoir": 1, "geometry": {"type": "Point", "coordinates": [2.348701, 48.863675]}, "recordid": "0190edd7b0766c6d3e43093deb41abe9446c1b22", "city": "Paris", "country": "France"},
{"zipcode": 75011, "address": "184 bd Voltaire", "prix_salle": "-", "geoloc": [48.854584, 2.385193], "name": "L'ing\u00e9nu", "prix_terasse": "-", "date": "2012-06-27", "prix_comptoir": 1, "geometry": {"type": "Point", "coordinates": [2.385193, 48.854584]}, "recordid": "7fcef7475ec632d5c61c9c36c1d52a402ad2e9e8", "city": "Paris", "country": "France"},
{"zipcode": 75018, "address": "8 rue L'Olive", "prix_salle": "-", "geoloc": [48.890605, 2.361349], "name": "L'Olive", "prix_terasse": "-", "date": "2012-06-27", "prix_comptoir": 1, "geometry": {"type": "Point", "coordinates": [2.361349, 48.890605]}, "recordid": "35286273f281c8c5082b3d3bd17f6bbf207426f9", "city": "Paris", "country": "France"},
{"zipcode": 75002, "address": "18 rue Favart", "prix_salle": "-", "geoloc": [48.871396, 2.338321], "name": "Le Biz", "prix_terasse": "-", "date": "2012-06-27", "prix_comptoir": 1, "geometry": {"type": "Point", "coordinates": [2.338321, 48.871396]}, "recordid": "cf2f6b9e283aaeeca2214cc1fe57b45e45668e25", "city": "Paris", "country": "France"},
{"zipcode": 75002, "address": "1 rue Louis le Grand", "prix_salle": "-", "geoloc": [48.868109, 2.331785], "name": "Le Cap Bourbon", "prix_terasse": "-", "date": "2012-06-27", "prix_comptoir": 1, "geometry": {"type": "Point", "coordinates": [2.331785, 48.868109]}, "recordid": "339030e95e0846b41a8e2b91045456c4e4a50043", "city": "Paris", "country": "France"},
{"zipcode": 75015, "address": "9 Place du General Beuret", "prix_salle": "-", "geoloc": [48.84167, 2.303053], "name": "Le General Beuret", "prix_terasse": "-", "date": "2012-06-27", "prix_comptoir": 1, "geometry": {"type": "Point", "coordinates": [2.303053, 48.84167]}, "recordid": "12b37036d28d28b32ebe81756ad15eb68372947f", "city": "Paris", "country": "France"},
{"zipcode": 75015, "address": "95 avenue Emile Zola", "prix_salle": "-", "geoloc": [48.846814, 2.289311], "name": "Le Germinal", "prix_terasse": "-", "date": "2012-06-27", "prix_comptoir": 1, "geometry": {"type": "Point", "coordinates": [2.289311, 48.846814]}, "recordid": "4e03831a64e886a28a7232e54f2812c1ced23c5a", "city": "Paris", "country": "France"},
{"zipcode": 75001, "address": "202 rue Saint-Honor\u00e9", "prix_salle": "-", "geoloc": [48.862655, 2.337607], "name": "Le Ragueneau", "prix_terasse": "-", "date": "2012-06-27", "prix_comptoir": 1, "geometry": {"type": "Point", "coordinates": [2.337607, 48.862655]}, "recordid": "e303131b2600d4c2287749a36bf7193d2fa60bd7", "city": "Paris", "country": "France"},
{"zipcode": 75018, "address": "72 rue lamarck", "prix_salle": "-", "geoloc": [48.889982, 2.338933], "name": "Le refuge", "prix_terasse": "-", "date": "2012-06-27", "prix_comptoir": 1, "geometry": {"type": "Point", "coordinates": [2.338933, 48.889982]}, "recordid": "f64310461736a769c6854fdefb99b9f2e7b230a9", "city": "Paris", "country": "France"},
{"zipcode": 75010, "address": "13 rue du Faubourg Saint Denis", "prix_salle": "-", "geoloc": [48.870294, 2.352821], "name": "Le sully", "prix_terasse": "-", "date": "2012-06-27", "prix_comptoir": 1, "geometry": {"type": "Point", "coordinates": [2.352821, 48.870294]}, "recordid": "166be8588ff16e50838fa6a164d1e580497b795d", "city": "Paris", "country": "France"},
{"zipcode": 75015, "address": "60 rue des bergers", "prix_salle": "-", "geoloc": [48.842128, 2.280374], "name": "Le bal du pirate", "prix_terasse": "-", "date": "2014-02-01", "prix_comptoir": 1, "geometry": {"type": "Point", "coordinates": [2.280374, 48.842128]}, "recordid": "93ff6e35406a074a6ba2667d2b286abf91132f6a", "city": "Paris", "country": "France"},
{"zipcode": 75012, "address": "95 rue claude decaen", "prix_salle": "-", "geoloc": [48.838769, 2.39609], "name": "zic zinc", "prix_terasse": "-", "date": "2014-02-01", "prix_comptoir": 1, "geometry": {"type": "Point", "coordinates": [2.39609, 48.838769]}, "recordid": "8fdc739d64ff1f01973235301e3ec86791016759", "city": "Paris", "country": "France"},
{"zipcode": 75011, "address": "35 rue de l'orillon", "prix_salle": "-", "geoloc": [48.870247, 2.376306], "name": "l'orillon bar", "prix_terasse": "-", "date": "2014-02-01", "prix_comptoir": 1, "geometry": {"type": "Point", "coordinates": [2.376306, 48.870247]}, "recordid": "6e6e9695ef04c3fdbd4cfa19f0cfb0c0f93f4933", "city": "Paris", "country": "France"},
{"zipcode": 75020, "address": "116 Rue de M\u00e9nilmontant", "prix_salle": "-", "geoloc": [48.869848, 2.394247], "name": "Le Zazabar", "prix_terasse": "-", "date": "2013-08-22", "prix_comptoir": 1, "geometry": {"type": "Point", "coordinates": [2.394247, 48.869848]}, "recordid": "22edfe92a72ce1bb0eea972508b5caa7af2db2df", "city": "Paris", "country": "France"},
{"zipcode": 75005, "address": "22 rue Linn\u00e9", "prix_salle": "-", "geoloc": [48.845458, 2.354796], "name": "L'In\u00e9vitable", "prix_terasse": "-", "date": "2013-08-22", "prix_comptoir": 1, "geometry": {"type": "Point", "coordinates": [2.354796, 48.845458]}, "recordid": "6893cb08e99319091de9ba80305f22e0ce4cc08d", "city": "Paris", "country": "France"},
{"zipcode": 75013, "address": "77 rue Dunois", "prix_salle": "-", "geoloc": [48.83336, 2.365782], "name": "Le Dunois", "prix_terasse": "-", "date": "2013-08-22", "prix_comptoir": 1, "geometry": {"type": "Point", "coordinates": [2.365782, 48.83336]}, "recordid": "c3be1246dbc4ca5734d5bbd569436ba655105248", "city": "Paris", "country": "France"},
{"zipcode": 75001, "address": "202 rue Saint Honor\u00e9", "prix_salle": "-", "geoloc": [48.862655, 2.337607], "name": "Ragueneau", "prix_terasse": "-", "date": "2012-05-11", "prix_comptoir": 1, "geometry": {"type": "Point", "coordinates": [2.337607, 48.862655]}, "recordid": "e946d9e8f8c5a130f98eca945efadfd9eec40dcb", "city": "Paris", "country": "France"},
{"zipcode": 75013, "address": "48 rue du Dessous des Berges", "prix_salle": "1", "geoloc": [48.826608, 2.374571], "name": "Le Caminito", "prix_terasse": null, "date": "2012-10-22", "prix_comptoir": 1, "geometry": {"type": "Point", "coordinates": [2.374571, 48.826608]}, "recordid": "5d9ad8bcfbbc20adaec2aa7dcdb71326868c7686", "city": "Paris", "country": "France"},
{"zipcode": 75010, "address": "55bis quai de Valmy", "prix_salle": "1", "geoloc": [48.870598, 2.365413], "name": "Epicerie Musicale", "prix_terasse": "-", "date": "2012-10-22", "prix_comptoir": 1, "geometry": {"type": "Point", "coordinates": [2.365413, 48.870598]}, "recordid": "8ffea133d93c608d337bc0129f4f9f3d5cad8dae", "city": "Paris", "country": "France"},
{"zipcode": 75018, "address": "Le petit Bretonneau - \u00e0 l'int\u00e9rieur de l'H\u00f4pital", "prix_salle": "1", "geoloc": null, "name": "Le petit Bretonneau", "prix_terasse": "-", "date": "2012-10-22", "prix_comptoir": 1, "geometry": {}, "recordid": "dd1ffdbd55c2dc651201302b8015258f7d35fd35", "city": "Paris", "country": "France"},
{"zipcode": 75011, "address": "104 rue amelot", "prix_salle": "1", "geoloc": [48.862575, 2.367427], "name": "Le Centenaire", "prix_terasse": "-", "date": "2012-10-22", "prix_comptoir": 1, "geometry": {"type": "Point", "coordinates": [2.367427, 48.862575]}, "recordid": "e47d25752c2c8bcab5efb0e3a41920ec7a8a766a", "city": "Paris", "country": "France"},
{"zipcode": 75005, "address": "13 Rue du Pot de Fer", "prix_salle": "1", "geoloc": [48.842833, 2.348314], "name": "La Montagne Sans Genevi\u00e8ve", "prix_terasse": "-", "date": "2012-10-22", "prix_comptoir": null, "geometry": {"type": "Point", "coordinates": [2.348314, 48.842833]}, "recordid": "314d170601f81e3a3f26d8801f0fbee39981c788", "city": "Paris", "country": "France"},
{"zipcode": 75020, "address": "46 rue de Buzenval", "prix_salle": "1", "geoloc": [48.851325, 2.40171], "name": "Les P\u00e8res Populaires", "prix_terasse": "-", "date": "2012-10-18", "prix_comptoir": 1, "geometry": {"type": "Point", "coordinates": [2.40171, 48.851325]}, "recordid": "e75e8a3fe6212a0e576beec82f0128dd394e56fa", "city": "Paris", "country": "France"},
{"zipcode": 75007, "address": "188 rue de Grenelle", "prix_salle": "-", "geoloc": [48.857658, 2.305613], "name": "Cafe de grenelle", "prix_terasse": "-", "date": "2012-10-09", "prix_comptoir": 1, "geometry": {"type": "Point", "coordinates": [2.305613, 48.857658]}, "recordid": "72e274046d671e68bc7754808feacfc95b91b6ed", "city": "Paris", "country": "France"},
{"zipcode": 75009, "address": "73 rue de la Victoire", "prix_salle": "-", "geoloc": [48.875207, 2.332944], "name": "Le relais de la victoire", "prix_terasse": "-", "date": "2012-10-09", "prix_comptoir": 1, "geometry": {"type": "Point", "coordinates": [2.332944, 48.875207]}, "recordid": "01c21abdf35484f9ad184782979ecd078de84523", "city": "Paris", "country": "France"},
{"zipcode": 75016, "address": "Route de la Muette \u00e0 Neuilly\nClub hippique du Jardin d\u2019Acclimatation", "prix_salle": "1", "geoloc": null, "name": "La chaumi\u00e8re gourmande", "prix_terasse": "-", "date": "2012-03-07", "prix_comptoir": null, "geometry": {}, "recordid": "438ec18d35793d12eb6a137373c3fe4f3aa38a69", "city": "Paris", "country": "France"},
{"zipcode": 75018, "address": "216, rue Marcadet", "prix_salle": "-", "geoloc": [48.891882, 2.33365], "name": "Le Brio", "prix_terasse": "-", "date": "2012-03-07", "prix_comptoir": 1, "geometry": {"type": "Point", "coordinates": [2.33365, 48.891882]}, "recordid": "49e3584ce3d6a6a236b4a0db688865bdd3483fec", "city": "Paris", "country": "France"},
{"zipcode": 75017, "address": "22 rue des Dames", "prix_salle": "-", "geoloc": [48.884753, 2.324648], "name": "Caves populaires", "prix_terasse": "-", "date": "2012-03-07", "prix_comptoir": 1, "geometry": {"type": "Point", "coordinates": [2.324648, 48.884753]}, "recordid": "af81e5eca2b84ea706ac2d379edf65b0fb2f879a", "city": "Paris", "country": "France"},
{"zipcode": 75014, "address": "12 avenue Jean Moulin", "prix_salle": "-", "geoloc": [48.827428, 2.325652], "name": "Caprice caf\u00e9", "prix_terasse": "-", "date": "2012-03-07", "prix_comptoir": 1, "geometry": {"type": "Point", "coordinates": [2.325652, 48.827428]}, "recordid": "88e07bdb723b49cd27c90403b5930bca1c93b458", "city": "Paris", "country": "France"},
{"zipcode": 75013, "address": "7 rue Clisson", "prix_salle": "-", "geoloc": [48.832964, 2.369266], "name": "Tamm Bara", "prix_terasse": "-", "date": "2012-03-07", "prix_comptoir": 1, "geometry": {"type": "Point", "coordinates": [2.369266, 48.832964]}, "recordid": "baf59c98acafbe48ed9e91b64377da216a20cbcc", "city": "Paris", "country": "France"},
{"zipcode": 75009, "address": "1 rue de Montholon", "prix_salle": "-", "geoloc": [48.876577, 2.348414], "name": "L'anjou", "prix_terasse": "-", "date": "2012-03-07", "prix_comptoir": 1, "geometry": {"type": "Point", "coordinates": [2.348414, 48.876577]}, "recordid": "e6f5949dca40548aad296208c61c498f639f648c", "city": "Paris", "country": "France"},
{"zipcode": 75007, "address": "2 rue Robert Esnault Pelterie", "prix_salle": "-", "geoloc": [48.862599, 2.315086], "name": "Caf\u00e9 dans l'aerogare Air France Invalides", "prix_terasse": "-", "date": "2012-03-07", "prix_comptoir": 1, "geometry": {"type": "Point", "coordinates": [2.315086, 48.862599]}, "recordid": "6d175eb48c577fafdfc99df0ab55da468cf17164", "city": "Paris", "country": "France"},
{"zipcode": 75005, "address": "10 rue d\"Ulm", "prix_salle": "-", "geoloc": [48.844854, 2.345413], "name": "Waikiki", "prix_terasse": "-", "date": "2012-03-07", "prix_comptoir": 1, "geometry": {"type": "Point", "coordinates": [2.345413, 48.844854]}, "recordid": "fb1e2bc2ae55d3d47da682c71093a12fa64fbd45", "city": "Paris", "country": "France"},
{"zipcode": 75010, "address": "36 rue Beaurepaire", "prix_salle": "-", "geoloc": [48.871576, 2.364499], "name": "Chez Prune", "prix_terasse": "-", "date": "2012-03-07", "prix_comptoir": 1, "geometry": {"type": "Point", "coordinates": [2.364499, 48.871576]}, "recordid": "19399ede5b619761877822185bbb4c98b565974c", "city": "Paris", "country": "France"},
{"zipcode": 75014, "address": "21 rue Boulard", "prix_salle": "-", "geoloc": [48.833863, 2.329046], "name": "Au Vin Des Rues", "prix_terasse": "-", "date": "2012-06-27", "prix_comptoir": 1, "geometry": {"type": "Point", "coordinates": [2.329046, 48.833863]}, "recordid": "87263873b6f8346b5777844be0122a307f29fcab", "city": "Paris", "country": "France"},
{"zipcode": 75015, "address": "14 rue d'alleray", "prix_salle": "-", "geoloc": [48.838137, 2.301166], "name": "bistrot les timbr\u00e9s", "prix_terasse": "-", "date": "2012-06-27", "prix_comptoir": 1, "geometry": {"type": "Point", "coordinates": [2.301166, 48.838137]}, "recordid": "74b6d7113e5b14eb8e890663f061208bf4ff6728", "city": "Paris", "country": "France"},
{"zipcode": 75008, "address": "9 rue de Miromesnil", "prix_salle": "-", "geoloc": [48.871799, 2.315985], "name": "Caf\u00e9 beauveau", "prix_terasse": "-", "date": "2012-06-27", "prix_comptoir": 1, "geometry": {"type": "Point", "coordinates": [2.315985, 48.871799]}, "recordid": "2759f5cdda4bcb88ca3ae2f7299b37b8e62596c8", "city": "Paris", "country": "France"},
{"zipcode": 75001, "address": "9 rue des petits champs", "prix_salle": "-", "geoloc": [48.866259, 2.338739], "name": "Caf\u00e9 Pistache", "prix_terasse": "-", "date": "2012-06-27", "prix_comptoir": 1, "geometry": {"type": "Point", "coordinates": [2.338739, 48.866259]}, "recordid": "6d2675cdc912118d0376229be8e436feca9c8af7", "city": "Paris", "country": "France"},
{"zipcode": 75020, "address": "13 Rue Jean-Baptiste Dumay", "prix_salle": "-", "geoloc": [48.874605, 2.387738], "name": "La Cagnotte", "prix_terasse": "-", "date": "2012-06-27", "prix_comptoir": 1, "geometry": {"type": "Point", "coordinates": [2.387738, 48.874605]}, "recordid": "f7085c754c0c97e418d7e5213753f74bd396fc27", "city": "Paris", "country": "France"},
{"zipcode": 75015, "address": "172 rue de vaugirard", "prix_salle": "-", "geoloc": [48.842462, 2.310919], "name": "le 1 cinq", "prix_terasse": "-", "date": "2012-06-27", "prix_comptoir": 1, "geometry": {"type": "Point", "coordinates": [2.310919, 48.842462]}, "recordid": "17e917723fc99d6e5bd77eb9633ac2e789a9a6d9", "city": "Paris", "country": "France"},
{"zipcode": 75012, "address": "28 bis boulevard Diderot", "prix_salle": "-", "geoloc": [48.84591, 2.375543], "name": "Le Killy Jen", "prix_terasse": "-", "date": "2012-06-27", "prix_comptoir": 1, "geometry": {"type": "Point", "coordinates": [2.375543, 48.84591]}, "recordid": "93132bd8b3ae67dfcc8cf8c1166e312ac4acb9b9", "city": "Paris", "country": "France"},
{"zipcode": 75015, "address": "106 rue Lecourbe", "prix_salle": "-", "geoloc": [48.842868, 2.303173], "name": "Les Artisans", "prix_terasse": "-", "date": "2012-06-27", "prix_comptoir": 1, "geometry": {"type": "Point", "coordinates": [2.303173, 48.842868]}, "recordid": "c37ef573b4cb2d1e61795d6a9ef11de433dc9a99", "city": "Paris", "country": "France"},
{"zipcode": 75001, "address": "83 avenue de Wagram", "prix_salle": "-", "geoloc": [48.865684, 2.334416], "name": "Peperoni", "prix_terasse": "-", "date": "2012-06-27", "prix_comptoir": 1, "geometry": {"type": "Point", "coordinates": [2.334416, 48.865684]}, "recordid": "9461f859ca009ced25555fa6af1e6867dda9223e", "city": "Paris", "country": "France"},
{"zipcode": 75015, "address": "380 rue de vaugirard", "prix_salle": "-", "geoloc": [48.833146, 2.288834], "name": "le lutece", "prix_terasse": "-", "date": "2014-02-01", "prix_comptoir": 1, "geometry": {"type": "Point", "coordinates": [2.288834, 48.833146]}, "recordid": "ddd13990c1408700085366bd4ba313acd69a44ea", "city": "Paris", "country": "France"},
{"zipcode": 75018, "address": "16 rue Ganneron", "prix_salle": "-", "geoloc": [48.886431, 2.327429], "name": "Brasiloja", "prix_terasse": "-", "date": "2014-02-01", "prix_comptoir": 1, "geometry": {"type": "Point", "coordinates": [2.327429, 48.886431]}, "recordid": "d679bb1642534278f4c0203d67be0bafd5306d81", "city": "Paris", "country": "France"},
{"zipcode": 75004, "address": "16 rue de Rivoli", "prix_salle": "-", "geoloc": [48.855711, 2.359491], "name": "Rivolux", "prix_terasse": "-", "date": "2014-02-01", "prix_comptoir": 1, "geometry": {"type": "Point", "coordinates": [2.359491, 48.855711]}, "recordid": "bdd2b008cc765c7fe195c037b830cd2628420a2f", "city": "Paris", "country": "France"},
{"zipcode": 75012, "address": "21 Bis Boulevard Diderot", "prix_salle": "-", "geoloc": [48.845898, 2.372766], "name": "L'europ\u00e9en", "prix_terasse": "-", "date": "2013-08-22", "prix_comptoir": 1, "geometry": {"type": "Point", "coordinates": [2.372766, 48.845898]}, "recordid": "693c0da7d4db24781ed161c01a661c36074a94fa", "city": "Paris", "country": "France"},
{"zipcode": 75003, "address": "39 rue Notre Dame de Nazareth", "prix_salle": "-", "geoloc": [48.867465, 2.357791], "name": "NoMa", "prix_terasse": "-", "date": "2013-08-22", "prix_comptoir": 1, "geometry": {"type": "Point", "coordinates": [2.357791, 48.867465]}, "recordid": "60d8b670810cc95eb0439dd0c238f8205ea8ef76", "city": "Paris", "country": "France"},
{"zipcode": 75020, "address": "1 Rue des Envierges", "prix_salle": "-", "geoloc": [48.871595, 2.385858], "name": "O'Paris", "prix_terasse": "-", "date": "2013-08-22", "prix_comptoir": 1, "geometry": {"type": "Point", "coordinates": [2.385858, 48.871595]}, "recordid": "297c040284a05efe35c69bb621505e6acfdcdda4", "city": "Paris", "country": "France"},
{"zipcode": 75010, "address": "16 avenue Richerand", "prix_salle": "-", "geoloc": [48.872402, 2.366532], "name": "Caf\u00e9 Clochette", "prix_terasse": "-", "date": "2013-08-22", "prix_comptoir": 1, "geometry": {"type": "Point", "coordinates": [2.366532, 48.872402]}, "recordid": "a561a941f538e8a1d321bf8d98576d06be037962", "city": "Paris", "country": "France"},
{"zipcode": 75011, "address": "40 Boulevard Beaumarchais", "prix_salle": "-", "geoloc": [48.856584, 2.368574], "name": "La cantoche de Paname", "prix_terasse": "-", "date": "2013-08-22", "prix_comptoir": 0, "geometry": {"type": "Point", "coordinates": [2.368574, 48.856584]}, "recordid": "5ba2aaec9f1de9d01e65be95215cab13c693cdf3", "city": "Paris", "country": "France"},
{"zipcode": 75020, "address": "148 Boulevard de Charonne", "prix_salle": "-", "geoloc": [48.856496, 2.394874], "name": "Le Saint Ren\u00e9", "prix_terasse": "-", "date": "2013-08-22", "prix_comptoir": 1, "geometry": {"type": "Point", "coordinates": [2.394874, 48.856496]}, "recordid": "4d60b350d04d4b1bf4bfd4dd6cc59687dc792c74", "city": "Paris", "country": "France"},
{"zipcode": 75012, "address": "196 rue du faubourg saint-antoine", "prix_salle": "1", "geoloc": [48.850055, 2.383908], "name": "La Libert\u00e9", "prix_terasse": "-", "date": "2012-10-22", "prix_comptoir": 1, "geometry": {"type": "Point", "coordinates": [2.383908, 48.850055]}, "recordid": "ee94e76326f8dcbe3500afec69f1a21eb1215ad0", "city": "Paris", "country": "France"},
{"zipcode": 75002, "address": "16 rue des Petits Champs", "prix_salle": "1", "geoloc": [48.866737, 2.33716], "name": "Chez Rutabaga", "prix_terasse": "-", "date": "2012-10-22", "prix_comptoir": 1, "geometry": {"type": "Point", "coordinates": [2.33716, 48.866737]}, "recordid": "a420ea4608440b8dc8e0267fe8cc513daa950551", "city": "Paris", "country": "France"},
{"zipcode": 75017, "address": "2 rue Lemercier", "prix_salle": "1", "geoloc": [48.885367, 2.325325], "name": "Le BB (Bouchon des Batignolles)", "prix_terasse": "-", "date": "2012-10-22", "prix_comptoir": 1, "geometry": {"type": "Point", "coordinates": [2.325325, 48.885367]}, "recordid": "20986cbfe11018bd0aba8150a49db1c435f7642d", "city": "Paris", "country": "France"},
{"zipcode": 75009, "address": "10 rue Rossini", "prix_salle": "1", "geoloc": [48.873175, 2.339193], "name": "La Brocante", "prix_terasse": "-", "date": "2012-10-22", "prix_comptoir": 1, "geometry": {"type": "Point", "coordinates": [2.339193, 48.873175]}, "recordid": "2e10601c35669394d43936a771b18408be0338ba", "city": "Paris", "country": "France"},
{"zipcode": 75014, "address": "3 rue Ga\u00eet\u00e9", "prix_salle": "1", "geoloc": [48.840771, 2.324589], "name": "Le Plomb du cantal", "prix_terasse": "-", "date": "2012-10-22", "prix_comptoir": 1, "geometry": {"type": "Point", "coordinates": [2.324589, 48.840771]}, "recordid": "6fb510614e00b065bf16a5af8e2c0eaf561a5654", "city": "Paris", "country": "France"},
{"zipcode": 75017, "address": "22 rue des Dames", "prix_salle": "1", "geoloc": [48.884753, 2.324648], "name": "Les caves populaires", "prix_terasse": "-", "date": "2012-10-22", "prix_comptoir": 1, "geometry": {"type": "Point", "coordinates": [2.324648, 48.884753]}, "recordid": "d650c509a0aa8ed7b9c9b88861263f31463bbd0e", "city": "Paris", "country": "France"},
{"zipcode": 75020, "address": "108 rue de M\u00e9nilmontant", "prix_salle": "-", "geoloc": [48.869519, 2.39339], "name": "Chez Luna", "prix_terasse": "-", "date": "2012-10-09", "prix_comptoir": 1, "geometry": {"type": "Point", "coordinates": [2.39339, 48.869519]}, "recordid": "736f4d996f1f8b7c3a0ce2abfeebfcce2a4bab13", "city": "Paris", "country": "France"},
{"zipcode": 75019, "address": "1 rue du Plateau", "prix_salle": "-", "geoloc": [48.877903, 2.385365], "name": "Le bar Fleuri", "prix_terasse": "-", "date": "2012-03-07", "prix_comptoir": 1, "geometry": {"type": "Point", "coordinates": [2.385365, 48.877903]}, "recordid": "be55720646093788ec161c6cadc5ad8059f4b90b", "city": "Paris", "country": "France"},
{"zipcode": 75017, "address": "101 rue des dames", "prix_salle": "-", "geoloc": [48.882939, 2.31809], "name": "Trois pi\u00e8ces cuisine", "prix_terasse": "-", "date": "2012-03-07", "prix_comptoir": 1, "geometry": {"type": "Point", "coordinates": [2.31809, 48.882939]}, "recordid": "7bbbfb755020a2c25cce0067601994ce5ee4193f", "city": "Paris", "country": "France"},
{"zipcode": 75015, "address": "61 avenue de la Motte Picquet", "prix_salle": "-", "geoloc": [48.849497, 2.298855], "name": "Le Zinc", "prix_terasse": "-", "date": "2012-03-07", "prix_comptoir": 1, "geometry": {"type": "Point", "coordinates": [2.298855, 48.849497]}, "recordid": "e7c35a94454518de6de5bbecbc015fc37f7aea14", "city": "Paris", "country": "France"},
{"zipcode": 75010, "address": "136 rue du Faubourg poissonni\u00e8re", "prix_salle": "-", "geoloc": [48.880669, 2.349964], "name": "La cantine de Zo\u00e9", "prix_terasse": "-", "date": "2012-03-07", "prix_comptoir": 1, "geometry": {"type": "Point", "coordinates": [2.349964, 48.880669]}, "recordid": "0edc473b3432a869b8ed66b6c4c989766b699947", "city": "Paris", "country": "France"},
{"zipcode": 75006, "address": "6/8 rue Stanislas", "prix_salle": "-", "geoloc": [48.844057, 2.328402], "name": "Les Vendangeurs", "prix_terasse": "-", "date": "2012-03-07", "prix_comptoir": 1, "geometry": {"type": "Point", "coordinates": [2.328402, 48.844057]}, "recordid": "e9766ea36f6293bf670ed938bff02b975d012973", "city": "Paris", "country": "France"},
{"zipcode": 75006, "address": "3 carrefour de l'Od\u00e9on", "prix_salle": "-", "geoloc": [48.852053, 2.338779], "name": "L'avant comptoir", "prix_terasse": "-", "date": "2012-03-07", "prix_comptoir": 1, "geometry": {"type": "Point", "coordinates": [2.338779, 48.852053]}, "recordid": "fe843d2f43dcaac9129f5b36dc367558dfd3b3e4", "city": "Paris", "country": "France"},
{"zipcode": 75018, "address": "1 rue Paul albert", "prix_salle": "1", "geoloc": [48.886504, 2.34498], "name": "Botak cafe", "prix_terasse": "1", "date": "2012-03-07", "prix_comptoir": 1, "geometry": {"type": "Point", "coordinates": [2.34498, 48.886504]}, "recordid": "9e19c375e612f5fb803ec6a27881858619207812", "city": "Paris", "country": "France"},
{"zipcode": 75010, "address": "67 rue du Ch\u00e2teau d'eau", "prix_salle": "-", "geoloc": [48.872722, 2.354594], "name": "le chateau d'eau", "prix_terasse": "-", "date": "2012-03-07", "prix_comptoir": 1, "geometry": {"type": "Point", "coordinates": [2.354594, 48.872722]}, "recordid": "05bb6a26ec5bfbba25da2d19a5f0e83d69800f38", "city": "Paris", "country": "France"},
{"zipcode": 75012, "address": "58 rue du Fbg Saint-Antoine", "prix_salle": "-", "geoloc": [48.85192, 2.373229], "name": "Bistrot Saint-Antoine", "prix_terasse": "-", "date": "2012-06-27", "prix_comptoir": 1, "geometry": {"type": "Point", "coordinates": [2.373229, 48.85192]}, "recordid": "daa3908ddf69d378fec5b4548494727e1121adc4", "city": "Paris", "country": "France"},
{"zipcode": 75004, "address": "11/13 boulevard Beaumarchais", "prix_salle": "-", "geoloc": [48.854685, 2.368487], "name": "Chez Oscar", "prix_terasse": "-", "date": "2012-06-27", "prix_comptoir": 1, "geometry": {"type": "Point", "coordinates": [2.368487, 48.854685]}, "recordid": "c73be0483480c59e6ab6bc3a906c8d9dd474887f", "city": "Paris", "country": "France"},
{"zipcode": 75008, "address": "63 rue de Ponthieu", "prix_salle": "-", "geoloc": [48.87226, 2.304441], "name": "Le Fronton", "prix_terasse": "-", "date": "2012-06-27", "prix_comptoir": 1, "geometry": {"type": "Point", "coordinates": [2.304441, 48.87226]}, "recordid": "85a8200d3e3aed7724d3207ed8b1ee5ec50c1f90", "city": "Paris", "country": "France"},
{"zipcode": 75015, "address": "48 avenue de la Motte Picquet", "prix_salle": "-", "geoloc": [48.851, 2.300378], "name": "Le Piquet", "prix_terasse": "-", "date": "2012-06-27", "prix_comptoir": 1, "geometry": {"type": "Point", "coordinates": [2.300378, 48.851]}, "recordid": "460e2adc95fd172f753b1b6ed296c2711639d49d", "city": "Paris", "country": "France"},
{"zipcode": 75005, "address": "104 rue Mouffetard", "prix_salle": "-", "geoloc": [48.841089, 2.349565], "name": "Le Tournebride", "prix_terasse": "-", "date": "2012-06-27", "prix_comptoir": 1, "geometry": {"type": "Point", "coordinates": [2.349565, 48.841089]}, "recordid": "8a7a23ed68366f70ab939c877cbdce46f19d75c7", "city": "Paris", "country": "France"},
{"zipcode": 75014, "address": "52 rue des plantes", "prix_salle": "-", "geoloc": [48.828704, 2.322074], "name": "maison du vin", "prix_terasse": "-", "date": "2012-06-27", "prix_comptoir": 1, "geometry": {"type": "Point", "coordinates": [2.322074, 48.828704]}, "recordid": "482507a8f0fe4960f94372b6fa12b16e7d4f2a93", "city": "Paris", "country": "France"},
{"zipcode": 75005, "address": "11 Quai de la Tournelle", "prix_salle": "-", "geoloc": [48.849821, 2.355337], "name": "Caf\u00e9 rallye tournelles", "prix_terasse": "-", "date": "2013-08-22", "prix_comptoir": 1, "geometry": {"type": "Point", "coordinates": [2.355337, 48.849821]}, "recordid": "91d88e321a75b6a8c4dea816c399fda77c41f9d1", "city": "Paris", "country": "France"},
{"zipcode": 75010, "address": "61 rue du ch\u00e2teau d'eau", "prix_salle": "-", "geoloc": [48.872498, 2.355136], "name": "Brasserie le Morvan", "prix_terasse": "-", "date": "2013-08-22", "prix_comptoir": 1, "geometry": {"type": "Point", "coordinates": [2.355136, 48.872498]}, "recordid": "6ec62058995948fc18d331f01a2d03acc0d9e0fa", "city": "Paris", "country": "France"},
{"zipcode": 75019, "address": "6 rue M\u00e9lingue", "prix_salle": "1", "geoloc": [48.874879, 2.386064], "name": "Chez Miamophile", "prix_terasse": "1", "date": "2013-08-22", "prix_comptoir": 1, "geometry": {"type": "Point", "coordinates": [2.386064, 48.874879]}, "recordid": "13924872737e4fc640a43da58937c3777c2ac753", "city": "Paris", "country": "France"},
{"zipcode": 75011, "address": "18 rue de Crussol", "prix_salle": "-", "geoloc": [48.864269, 2.36858], "name": "Panem", "prix_terasse": "-", "date": "2012-05-11", "prix_comptoir": 0, "geometry": {"type": "Point", "coordinates": [2.36858, 48.864269]}, "recordid": "67bdf3a6989f80749a1ba33a17b1370de0a0e1cd", "city": "Paris", "country": "France"},
{"zipcode": 75017, "address": "47 rue de Batignolles", "prix_salle": "-", "geoloc": [48.885662, 2.319591], "name": "Petits Freres des Pauvres", "prix_terasse": "-", "date": "2012-05-11", "prix_comptoir": 0, "geometry": {"type": "Point", "coordinates": [2.319591, 48.885662]}, "recordid": "e27fd00149514bbfad7dd7e8f9b0c677df2d3f25", "city": "Paris", "country": "France"},
{"zipcode": 75015, "address": "198 rue de la Convention", "prix_salle": "-", "geoloc": [48.837212, 2.296046], "name": "Caf\u00e9 Dupont", "prix_terasse": "-", "date": "2012-05-11", "prix_comptoir": 0, "geometry": {"type": "Point", "coordinates": [2.296046, 48.837212]}, "recordid": "4d40e6d864dae81c152a05cb98e30933bde96aa1", "city": "Paris", "country": "France"},
{"zipcode": 75008, "address": "28 rue de Ponthieu", "prix_salle": "1", "geoloc": [48.871002, 2.30879], "name": "L'Angle", "prix_terasse": "-", "date": "2012-10-22", "prix_comptoir": 1, "geometry": {"type": "Point", "coordinates": [2.30879, 48.871002]}, "recordid": "c40bd2d1f98b415e539c27cf68518d060ebab51e", "city": "Paris", "country": "France"},
{"zipcode": 75018, "address": "19-23 rue L\u00e9on", "prix_salle": "1", "geoloc": [48.888023, 2.353467], "name": "Institut des Cultures d'Islam", "prix_terasse": "-", "date": "2012-10-22", "prix_comptoir": 1, "geometry": {"type": "Point", "coordinates": [2.353467, 48.888023]}, "recordid": "68d6d37b846e39bd8554e1f8f75974b486b0f27b", "city": "Paris", "country": "France"},
{"zipcode": 75018, "address": "19 rue Pajol", "prix_salle": "1", "geoloc": [48.886044, 2.360781], "name": "Canopy Caf\u00e9 associatif", "prix_terasse": "-", "date": "2012-10-22", "prix_comptoir": 1, "geometry": {"type": "Point", "coordinates": [2.360781, 48.886044]}, "recordid": "ff73bafb514bb68eb925c81aee43c3a58ac3c70d", "city": "Paris", "country": "France"},
{"zipcode": 75002, "address": "place de l'opera", "prix_salle": "-", "geoloc": [48.870287, 2.332491], "name": "L'Entracte", "prix_terasse": "-", "date": "2012-10-09", "prix_comptoir": 1, "geometry": {"type": "Point", "coordinates": [2.332491, 48.870287]}, "recordid": "0039cd8bceb5e281677a158f832a660789088071", "city": "Paris", "country": "France"},
{"zipcode": 75003, "address": "15 rue du Parc Royal", "prix_salle": "-", "geoloc": [48.858709, 2.362701], "name": "Le S\u00e9vign\u00e9", "prix_terasse": "-", "date": "2012-10-09", "prix_comptoir": 1, "geometry": {"type": "Point", "coordinates": [2.362701, 48.858709]}, "recordid": "adcc8b4f78f05ba7b24b0593e1516dfb7b415f91", "city": "Paris", "country": "France"},
{"zipcode": 75005, "address": "35 rue Claude Bernard", "prix_salle": "-", "geoloc": [48.839687, 2.347254], "name": "Le Caf\u00e9 d'avant", "prix_terasse": "-", "date": "2012-10-09", "prix_comptoir": 1, "geometry": {"type": "Point", "coordinates": [2.347254, 48.839687]}, "recordid": "b904fc48763938eee2169ba25aad2ffcc0dd6a9f", "city": "Paris", "country": "France"},
{"zipcode": 75006, "address": "53 rue Notre-Dame des Champs", "prix_salle": "-", "geoloc": [48.844244, 2.330407], "name": "Le Lucernaire", "prix_terasse": "-", "date": "2012-10-09", "prix_comptoir": 1, "geometry": {"type": "Point", "coordinates": [2.330407, 48.844244]}, "recordid": "cc72af04314fd40e16ff611c799d378515043508", "city": "Paris", "country": "France"},
{"zipcode": 75009, "address": "12 rue Blanche", "prix_salle": "-", "geoloc": [48.877599, 2.332111], "name": "Le Brigadier", "prix_terasse": "-", "date": "2012-10-09", "prix_comptoir": 1, "geometry": {"type": "Point", "coordinates": [2.332111, 48.877599]}, "recordid": "978d4bc68c9ebf81029d3e77274d2107777b8a75", "city": "Paris", "country": "France"},
{"zipcode": 75013, "address": "26 rue du Docteur Magnan", "prix_salle": "-", "geoloc": [48.826494, 2.359987], "name": "L'\u00e2ge d'or", "prix_terasse": "-", "date": "2012-03-07", "prix_comptoir": 1, "geometry": {"type": "Point", "coordinates": [2.359987, 48.826494]}, "recordid": "40bffbdc0c9ed1cbce820fed875d7c21d8964640", "city": "Paris", "country": "France"},
{"zipcode": 75017, "address": "Place de Clichy", "prix_salle": "-", "geoloc": [48.883717, 2.326861], "name": "Bagels & Coffee Corner", "prix_terasse": "-", "date": "2012-03-07", "prix_comptoir": 1, "geometry": {"type": "Point", "coordinates": [2.326861, 48.883717]}, "recordid": "262facde9b8c4568c9ba7fbce8f069ff8c76948d", "city": "Paris", "country": "France"},
{"zipcode": 75015, "address": "10 boulevard Victor", "prix_salle": "-", "geoloc": [48.835843, 2.278501], "name": "Caf\u00e9 Victor", "prix_terasse": "-", "date": "2012-03-07", "prix_comptoir": 1, "geometry": {"type": "Point", "coordinates": [2.278501, 48.835843]}, "recordid": "e5817ec44ac5a7ea2e4a34b6a2e13d535156642b", "city": "Paris", "country": "France"},
{"zipcode": 75012, "address": "54, avenue Daumesnil", "prix_salle": "-", "geoloc": [48.845337, 2.379024], "name": "L'empreinte", "prix_terasse": "-", "date": "2012-03-07", "prix_comptoir": 1, "geometry": {"type": "Point", "coordinates": [2.379024, 48.845337]}, "recordid": "b96ddd35cbbf5d93aaff79487afdf083b5ff0817", "city": "Paris", "country": "France"},
{"zipcode": 75011, "address": "93, rue de la Roquette", "prix_salle": "-", "geoloc": [48.857312, 2.379055], "name": "L'horizon", "prix_terasse": "-", "date": "2012-03-07", "prix_comptoir": 1, "geometry": {"type": "Point", "coordinates": [2.379055, 48.857312]}, "recordid": "84c6b7335e7f82ac942c4f398723ec99076f148d", "city": "Paris", "country": "France"},
{"zipcode": 75012, "address": "34 bis rue de Wattignies", "prix_salle": "-", "geoloc": [48.835878, 2.395723], "name": "Au pays de Vannes", "prix_terasse": "-", "date": "2012-06-27", "prix_comptoir": 1, "geometry": {"type": "Point", "coordinates": [2.395723, 48.835878]}, "recordid": "a17869dbb9d0d5b1e5ed7bb288053900b04ee944", "city": "Paris", "country": "France"},
{"zipcode": 75007, "address": "36 rue de Varenne", "prix_salle": "-", "geoloc": [48.85413, 2.323539], "name": "Caf\u00e9 Varenne", "prix_terasse": "-", "date": "2012-06-27", "prix_comptoir": 1, "geometry": {"type": "Point", "coordinates": [2.323539, 48.85413]}, "recordid": "a26ec0d5fca47b8de77d862ad8a99b75bb520a09", "city": "Paris", "country": "France"},
{"zipcode": 75004, "address": "125 Rue Saint-Antoine", "prix_salle": "-", "geoloc": [48.855161, 2.360218], "name": "l'El\u00e9phant du nil", "prix_terasse": "-", "date": "2012-06-27", "prix_comptoir": 1, "geometry": {"type": "Point", "coordinates": [2.360218, 48.855161]}, "recordid": "7b7ceefd1f9ed85041265c9577e0dc8bee01d45a", "city": "Paris", "country": "France"},
{"zipcode": 75015, "address": "354 bis rue Vaugirard", "prix_salle": "-", "geoloc": [48.8357, 2.292961], "name": "Le Comptoir", "prix_terasse": "-", "date": "2012-06-27", "prix_comptoir": 1, "geometry": {"type": "Point", "coordinates": [2.292961, 48.8357]}, "recordid": "59d8fa304e535f4eb41f9746028034c9b30cbde4", "city": "Paris", "country": "France"},
{"zipcode": 75015, "address": "358 rue de Vaugirard", "prix_salle": "-", "geoloc": [48.835451, 2.292515], "name": "Le Parc Vaugirard", "prix_terasse": "-", "date": "2012-06-27", "prix_comptoir": 1, "geometry": {"type": "Point", "coordinates": [2.292515, 48.835451]}, "recordid": "19f655206a8446959c8e796c2b3cb9001890f985", "city": "Paris", "country": "France"},
{"zipcode": 75014, "address": "58 rue Daguerre", "prix_salle": "-", "geoloc": [48.834972, 2.327007], "name": "le Zango", "prix_terasse": "-", "date": "2012-06-27", "prix_comptoir": 1, "geometry": {"type": "Point", "coordinates": [2.327007, 48.834972]}, "recordid": "e1b54109015316a822747f788128f997a3478050", "city": "Paris", "country": "France"},
{"zipcode": 75020, "address": "3 rue de Lagny", "prix_salle": "-", "geoloc": [48.848887, 2.399972], "name": "Melting Pot", "prix_terasse": "-", "date": "2012-06-27", "prix_comptoir": 1, "geometry": {"type": "Point", "coordinates": [2.399972, 48.848887]}, "recordid": "fd0de2cbf73e0a728cd73e4e2a9a4a9c646f76f2", "city": "Paris", "country": "France"},
{"zipcode": 75017, "address": "174 avenue de Clichy", "prix_salle": "-", "geoloc": [48.892366, 2.317359], "name": "Pari's Caf\u00e9", "prix_terasse": "-", "date": "2012-06-27", "prix_comptoir": 1, "geometry": {"type": "Point", "coordinates": [2.317359, 48.892366]}, "recordid": "831446ae203f89de26d3300e625c20717e82d40a", "city": "Paris", "country": "France"},
{"zipcode": 75012, "address": "157 rue Bercy 75012 Paris", "prix_salle": "-", "geoloc": [48.842146, 2.375986], "name": "L'entrep\u00f4t", "prix_terasse": "-", "date": "2014-02-01", "prix_comptoir": 1, "geometry": {"type": "Point", "coordinates": [2.375986, 48.842146]}, "recordid": "d8746118429eb118f38ecbee904636d9b33fa8ba", "city": "Paris", "country": "France"},
{"zipcode": 75003, "address": "Place de la R\u00e9publique", "prix_salle": "-", "geoloc": [48.867092, 2.363288], "name": "Le caf\u00e9 Monde et M\u00e9dias", "prix_terasse": "-", "date": "2013-08-22", "prix_comptoir": 1, "geometry": {"type": "Point", "coordinates": [2.363288, 48.867092]}, "recordid": "af04c90f25e25daf7f5cbbab1bc740bac26541d4", "city": "Paris", "country": "France"}]